City_TD,City,Lat,Lng,Max Temp,Humidity,Cloudiness,Wind Speed,Country,Date
0,castro,-24.7911,-50.0119,67.01,96,100,6.69,BR,1644000054
1,margate,51.3813,1.3862,42.89,70,1,4.0,GB,1644000056
2,rikitea,-23.1203,-134.9692,78.46,71,9,10.63,PF,1644000000
3,hasaki,35.7333,140.8333,28.69,44,97,21.79,JP,1644000061
4,jamestown,42.097,-79.2353,21.09,62,100,3.0,US,1643999782
5,busselton,-33.65,115.3333,68.09,59,0,5.19,AU,1644000065
6,port elizabeth,-33.918,25.5701,68.09,88,100,2.3,ZA,1644000067
7,cape town,-33.9258,18.4232,70.21,63,0,8.01,ZA,1644000013
8,saint-philippe,-21.3585,55.7679,80.19,87,100,27.63,RE,1643999963
9,vostok,46.4856,135.8833,-12.24,100,100,3.11,RU,1644000074
10,beysehir,37.6773,31.7246,17.51,91,22,5.55,TR,1644000076
11,mount isa,-20.7333,139.5,71.37,40,28,10.36,AU,1644000079
12,torbay,47.6666,-52.7314,32.58,96,100,13.8,CA,1644000081
13,govindgarh,27.5,76.9833,48.76,86,0,2.51,IN,1644000083
14,ushuaia,-54.8,-68.3,53.22,54,0,13.8,AR,1644000086
15,dikson,73.5069,80.5464,-3.69,90,100,5.86,RU,1643999798
16,tuktoyaktuk,69.4541,-133.0374,-25.6,75,20,9.22,CA,1644000090
17,hermanus,-34.4187,19.2345,64.8,62,0,19.35,ZA,1644000092
18,butaritari,3.0707,172.7902,82.51,73,14,19.1,KI,1644000095
19,schertz,29.5522,-98.2697,38.89,79,40,16.11,US,1644000097
20,pundaguitan,6.3711,126.1689,80.1,77,100,16.17,PH,1644000099
21,kurayoshi,35.4333,133.8167,37.22,70,95,20.29,JP,1644000102
22,pacific grove,36.6177,-121.9166,64.42,55,0,1.99,US,1644000104
23,carnarvon,-24.8667,113.6333,80.67,57,67,12.66,AU,1644000106
24,severo-kurilsk,50.6789,156.125,27.66,90,100,3.06,RU,1644000109
25,dwarka,22.2394,68.9678,69.82,58,0,6.53,IN,1644000111
26,barranca,-10.75,-77.7667,74.44,71,22,12.03,PE,1644000113
27,mugur-aksy,50.35,90.5,-11.78,77,18,6.24,RU,1644000118
28,chuy,-33.6971,-53.4616,80.74,69,18,5.64,UY,1644000120
29,flinders,-34.5833,150.8552,66.38,75,87,8.01,AU,1644000032
30,ornskoldsvik,63.2909,18.7153,34.75,100,100,6.91,SE,1644000125
31,mahebourg,-20.4081,57.7,79.25,94,75,13.8,MU,1644000127
32,bundaberg,-24.85,152.35,68.29,77,75,5.01,AU,1644000129
33,bredasdorp,-34.5322,20.0403,64.27,59,8,10.36,ZA,1644000132
34,camopi,3.1655,-52.3158,79.5,82,99,3.4,GF,1644000134
35,college,64.8569,-147.8028,2.28,66,75,0.0,US,1644000136
36,muzhi,65.3667,64.6667,6.57,90,100,8.03,RU,1644000139
37,dudinka,69.4058,86.1778,1.62,97,99,5.95,RU,1644000141
38,nanortalik,60.1432,-45.2371,11.64,75,100,45.16,GL,1644000143
39,hobart,-42.8794,147.3294,58.26,86,100,4.61,AU,1644000051
40,leningradskiy,69.3833,178.4167,-17.66,92,40,9.42,RU,1643999872
41,sitka,57.0531,-135.33,42.69,87,100,14.97,US,1644000152
42,arraial do cabo,-22.9661,-42.0278,85.96,78,40,20.71,BR,1644000058
43,nikolskoye,59.7035,30.7861,19.29,95,72,8.21,RU,1644000159
44,komsomolskiy,40.4272,71.7189,36.82,59,0,2.3,UZ,1644000161
45,gdov,58.7406,27.8122,17.67,85,91,16.75,RU,1644000163
46,hirara,24.8,125.2833,63.05,72,100,26.6,JP,1644000165
47,ulundi,-28.3352,31.4162,67.26,96,100,6.93,ZA,1644000170
48,poum,-20.2333,164.0167,81.43,84,100,17.6,NC,1644000172
49,hilo,19.7297,-155.09,76.62,70,100,6.91,US,1644000175
50,belem de sao francisco,-8.7539,-38.9658,96.31,24,86,8.95,BR,1644000177
51,hambantota,6.1241,81.1185,77.34,94,20,2.3,LK,1644000179
52,cherskiy,68.75,161.3,-34.71,99,14,3.15,RU,1644000184
53,kangaatsiaq,68.3065,-53.4641,7.68,79,100,19.8,GL,1644000186
54,puerto ayora,-0.7393,-90.3518,82.36,87,83,5.99,EC,1644000188
55,mataura,-46.1927,168.8643,51.48,98,100,1.36,NZ,1644000191
56,bethel,41.3712,-73.414,38.5,91,100,6.91,US,1644000005
57,vagur,61.4732,-6.8119,38.17,56,100,32.75,FO,1644000195
58,sivas,39.7916,37.0019,23.63,93,100,19.57,TR,1644000197
59,punta arenas,-53.15,-70.9167,57.31,41,0,17.27,CL,1644000200
60,tucumcari,35.1717,-103.725,35.94,50,0,6.91,US,1644000202
61,victoria,22.2855,114.1577,58.24,77,96,1.01,HK,1644000204
62,zhuhai,22.2769,113.5678,57.97,76,40,20.71,CN,1644000207
63,constitucion,-35.3333,-72.4167,69.44,69,16,14.12,CL,1644000209
64,pevek,69.7008,170.3133,-22.72,100,82,4.23,RU,1643999974
65,new norfolk,-42.7826,147.0587,57.92,75,49,1.79,AU,1644000194
66,vila franca do campo,37.7167,-25.4333,63.19,75,100,10.38,PT,1644000216
67,yulara,-25.2406,130.9889,64.24,59,0,6.91,AU,1644000218
68,finnsnes,69.2296,17.9811,21.16,86,99,7.63,NO,1644000220
69,airai,-8.9266,125.4092,60.12,90,99,1.86,TL,1644000225
70,zhanaozen,43.3,52.8,41.86,77,85,8.03,KZ,1644000212
71,codrington,-38.2667,141.9667,55.2,89,91,9.53,AU,1644000229
72,natagaima,3.6206,-75.0941,88.66,52,60,5.99,CO,1644000232
73,port blair,11.6667,92.75,77.04,88,40,2.3,IN,1644000236
74,port alfred,-33.5906,26.891,68.16,80,100,7.52,ZA,1644000238
75,wunsiedel,50.0333,12.0167,39.7,93,100,11.01,DE,1644000241
76,luanda,-8.8368,13.2343,78.8,73,20,9.22,AO,1643999949
77,whyalla,-33.0333,137.5833,64.29,72,74,3.44,AU,1644000193
78,north platte,41.1239,-100.7654,38.12,35,0,1.99,US,1644000247
79,avarua,-21.2078,-159.775,80.65,78,40,11.5,CK,1644000250
80,acapulco,16.8634,-99.8901,84.02,65,20,6.91,MX,1644000065
81,provideniya,64.3833,-173.3,-0.44,65,0,13.73,RU,1644000254
82,surdila-gaiseanca,45.0667,27.3333,35.67,51,31,10.11,RO,1644000259
83,glasgow,55.8652,-4.2576,38.91,83,40,17.27,GB,1643999964
84,isangel,-19.55,169.2667,76.8,94,100,15.66,VU,1644000039
85,buraydah,26.326,43.975,72.05,25,0,18.9,SA,1644000265
86,krk,45.0258,14.5731,50.67,93,100,17.94,HR,1644000267
87,ilulissat,69.2167,-51.1,17.62,53,75,16.11,GL,1643999975
88,huarmey,-10.0681,-78.1522,76.69,71,12,12.8,PE,1644000227
89,riviere-au-renard,48.9957,-64.3971,14.0,92,100,11.65,CA,1644000274
90,bacolod,10.6667,122.95,75.31,86,99,15.19,PH,1644000065
91,thompson,55.7435,-97.8558,-18.24,69,20,9.22,CA,1644000119
92,kargil,34.5667,76.1,-14.66,85,67,3.67,IN,1644000283
93,vila velha,-20.3297,-40.2925,82.35,83,75,4.0,BR,1644000033
94,cockburn town,21.4612,-71.1419,80.56,47,40,13.8,TC,1644000287
95,vaini,-21.2,-175.2,75.36,100,100,9.22,TO,1644000289
96,fortuna,40.5982,-124.1573,48.09,92,100,0.0,US,1644000122
97,coquimbo,-29.9533,-71.3436,69.96,69,0,9.55,CL,1644000059
98,donskoye,45.4552,41.9741,33.93,98,100,12.53,RU,1644000296
99,tiksi,71.6872,128.8694,-18.81,98,100,6.42,RU,1644000298
100,atuona,-9.8,-139.0333,78.19,78,29,16.22,PF,1644000303
101,dir,35.2058,71.8756,31.51,39,0,9.26,PK,1644000307
102,geraldton,-28.7667,114.6,72.01,53,0,3.44,AU,1644000201
103,touros,-5.1989,-35.4608,86.9,59,26,15.19,BR,1644000311
104,winnemucca,40.973,-117.7357,35.65,51,0,3.44,US,1644000314
105,qaanaaq,77.484,-69.3632,-4.92,64,100,9.28,GL,1644000041
106,hualmay,-11.0964,-77.6139,75.56,71,34,11.81,PE,1644000318
107,fare,-16.7,-151.0167,80.22,76,97,14.56,PF,1644000321
108,pangnirtung,66.1451,-65.7125,-16.6,76,75,17.27,CA,1644000323
109,astoria,46.1879,-123.8313,46.85,96,100,1.01,US,1644000325
110,isabela,6.7085,121.9711,77.05,88,100,7.25,PH,1644000328
111,alice springs,-23.7,133.8833,56.75,94,2,0.0,AU,1644000199
112,tasiilaq,65.6145,-37.6368,19.56,64,100,39.95,GL,1644000332
113,broome,42.2506,-75.833,23.02,76,100,1.99,US,1644000334
114,bom jesus,-9.0744,-44.3586,91.35,42,100,5.64,BR,1644000337
115,keti bandar,24.1447,67.4497,69.42,52,0,8.14,PK,1644000339
116,tuatapere,-46.1333,167.6833,51.82,83,100,3.2,NZ,1644000341
117,ukiah,39.1502,-123.2078,63.03,53,0,0.0,US,1644000344
118,perth,-31.9333,115.8333,74.66,48,0,0.0,AU,1644000088
119,villa maria,-32.4075,-63.2402,85.01,37,100,3.06,AR,1644000348
120,iqaluit,63.7506,-68.5145,-15.07,58,100,9.22,CA,1644000351
121,de aar,-30.6497,24.0123,69.03,59,2,25.64,ZA,1644000353
122,muborak,39.2553,65.1528,45.95,36,0,9.17,UZ,1644000357
123,simao,22.7886,100.9748,49.01,70,0,2.84,CN,1644000360
124,cam ranh,11.9214,109.1591,73.36,83,40,13.8,VN,1644000362
125,mar del plata,-38.0023,-57.5575,71.62,88,75,8.99,AR,1644000270
126,mandalgovi,45.7625,106.2708,3.97,75,22,7.61,MN,1644000367
127,ust-nera,64.5667,143.2,-20.9,73,60,0.67,RU,1644000303
128,san lawrenz,36.0553,14.204,57.85,82,87,5.99,MT,1644000371
129,saskylakh,71.9167,114.0833,-6.34,99,100,4.72,RU,1644000373
130,bluff,-46.6,168.3333,51.8,63,77,6.78,NZ,1644000377
131,kavieng,-2.5744,150.7967,81.77,73,100,6.46,PG,1644000279
132,parabel,58.6978,81.4825,22.42,91,100,11.99,RU,1644000381
133,mayumba,-3.432,10.6554,77.59,80,18,3.85,GA,1644000384
134,jiuquan,39.7432,98.5174,17.11,42,100,3.78,CN,1644000386
135,guane,22.2025,-84.0875,84.36,57,22,10.09,CU,1644000388
136,chifeng,42.2683,118.9636,4.62,61,0,8.99,CN,1644000391
137,bengkulu,-3.8004,102.2655,73.49,95,100,5.73,ID,1644000393
138,labrea,-7.2586,-64.7981,78.64,87,98,3.65,BR,1644000396
139,toora-khem,52.4675,96.11,-20.27,100,92,1.12,RU,1644000398
140,kisangani,0.5167,25.2,75.02,73,100,3.06,CD,1644000400
141,east london,-33.0153,27.9116,65.34,94,75,6.91,ZA,1644000403
142,luderitz,-26.6481,15.1594,70.02,69,34,12.64,NA,1644000405
143,mattru,7.6244,-11.8332,81.93,59,11,7.67,SL,1644000409
144,vardo,70.3705,31.1107,21.18,79,75,25.32,NO,1644000412
145,nadym,65.5333,72.5167,12.31,96,100,5.64,RU,1644000417
146,ribeira grande,38.5167,-28.7,61.2,77,40,14.97,PT,1644000274
147,grindavik,63.8424,-22.4338,27.07,80,75,9.22,IS,1644000421
148,yellowknife,62.456,-114.3525,-28.59,86,20,2.3,CA,1644000261
149,albany,42.6001,-73.9662,27.63,87,100,1.99,US,1644000425
150,chokurdakh,70.6333,147.9167,-30.95,100,66,1.74,RU,1644000428
151,san cristobal,7.7669,-72.225,77.18,52,94,2.33,VE,1644000430
152,lasa,46.6166,10.7002,42.26,62,3,2.19,IT,1644000432
153,vraca,43.8422,18.3955,32.72,86,0,3.0,BA,1644000435
154,khatanga,71.9667,102.5,-35.27,100,60,3.44,RU,1644000437
155,barrow,71.2906,-156.7887,-29.18,75,20,8.05,US,1644000440
156,cidreira,-30.1811,-50.2056,78.39,79,100,9.35,BR,1644000442
157,makakilo city,21.3469,-158.0858,74.19,79,0,4.61,US,1644000444
158,matara,5.9485,80.5353,74.44,87,39,3.94,LK,1644000447
159,nampula,-15.1165,39.2666,75.15,88,75,6.91,MZ,1644000449
160,qaqortoq,60.7167,-46.0333,10.9,71,20,27.49,GL,1644000451
161,husavik,66.0449,-17.3389,26.51,92,99,15.1,IS,1644000454
162,goleta,36.8181,10.305,64.4,36,20,6.91,TN,1644000456
163,ketchikan,55.3422,-131.6461,45.07,93,75,13.8,US,1644000460
164,upernavik,72.7868,-56.1549,-0.98,100,79,9.95,GL,1644000463
165,fasa,28.9383,53.6482,54.64,50,0,4.61,IR,1644000465
166,shahkot,31.0775,75.3372,45.12,91,1,3.15,IN,1644000467
167,bardiyah,31.7561,25.0865,53.51,64,12,18.68,LY,1644000472
168,kondoa,-4.9,35.7833,62.64,96,100,5.57,TZ,1644000474
169,mananjary,-21.2167,48.3333,77.05,92,100,16.8,MG,1644000477
170,moerai,-22.4333,-151.3333,78.37,77,37,16.4,PF,1644000479
171,santa rosa,14.3122,121.1114,78.85,75,90,12.97,PH,1644000379
172,guerrero negro,27.9769,-114.0611,61.5,22,0,1.39,MX,1644000375
173,burnie,-41.0667,145.9167,57.94,86,41,3.76,AU,1644000486
174,nchelenge,-9.3451,28.734,66.58,85,100,3.06,ZM,1644000492
175,liling,27.6667,113.5,35.49,85,100,3.85,CN,1644000495
176,shenjiamen,29.9576,122.298,41.67,59,3,9.48,CN,1644000390
177,mount gambier,-37.8333,140.7667,51.71,100,99,10.36,AU,1644000501
178,khash,28.2211,61.2158,52.74,20,0,1.9,IR,1644000504
179,jalu,29.0331,21.5482,55.24,53,0,7.38,LY,1644000506
180,bam,29.106,58.357,58.32,24,0,2.46,IR,1644000508
181,westport,41.1415,-73.3579,40.75,94,100,3.0,US,1644000511
182,cadillac,44.2519,-85.4012,18.16,45,0,0.0,US,1644000515
183,kuytun,54.3419,101.5036,-2.43,99,99,2.59,RU,1644000517
184,port hedland,-20.3167,118.5667,84.25,84,100,4.61,AU,1644000520
185,khorinsk,52.1657,109.7726,-2.38,96,100,3.11,RU,1644000522
186,huilong,31.8111,121.655,40.03,75,8,9.13,CN,1644000524
187,lyngseidet,69.5763,20.2189,21.29,76,100,23.04,NO,1644000527
188,tabou,4.423,-7.3528,80.6,78,4,7.45,CI,1644000529
189,kapaa,22.0752,-159.319,66.18,88,0,5.75,US,1644000532
190,pisco,-13.7,-76.2167,75.25,60,0,10.36,PE,1644000285
191,baykit,61.67,96.37,8.65,98,100,3.71,RU,1644000536
192,yumen,40.2833,97.2,16.54,42,100,13.35,CN,1644000538
193,tyrma,50.0833,132.1667,-16.44,100,100,1.34,RU,1644000541
194,vao,-22.6667,167.4833,80.24,86,100,16.13,NC,1644000543
195,stepnyak,52.8339,70.7803,12.69,70,100,11.1,KZ,1644000545
196,dawlatabad,36.4141,64.9053,44.85,43,1,2.17,AF,1644000548
197,asfi,32.2994,-9.2372,67.66,51,99,14.14,MA,1644000551
198,opuwo,-18.0607,13.84,73.44,43,60,11.3,NA,1644000553
199,maxixe,-23.8597,35.3472,78.62,78,20,7.0,MZ,1644000555
200,omboue,-1.5746,9.2618,78.4,81,78,4.83,GA,1644000562
201,vung tau,10.346,107.0843,77.0,79,100,15.12,VN,1644000564
202,wakkanai,45.4094,141.6739,25.05,69,100,19.08,JP,1644000569
203,zapolyarnyy,69.4154,30.8136,7.88,89,100,10.74,RU,1644000571
204,bahia blanca,-38.7196,-62.2724,69.1,74,100,15.97,AR,1644000573
205,barra do corda,-5.5,-45.25,83.71,78,100,2.62,BR,1644000579
206,naze,28.3667,129.4833,53.58,54,100,16.17,JP,1644000581
207,sabang,5.8933,95.3214,82.62,74,69,14.65,ID,1644000555
208,tanout,14.9709,8.8879,62.44,14,0,12.95,NE,1644000585
209,port lincoln,-34.7333,135.8667,63.59,84,56,14.5,AU,1644000396
210,berlevag,70.8578,29.0864,17.55,73,0,21.85,NO,1644000590
211,hay river,60.8156,-115.7999,-16.62,76,75,6.91,CA,1644000396
212,brae,60.3964,-1.353,40.91,59,100,33.62,GB,1644000594
213,ilo,-17.6394,-71.3375,72.46,68,0,13.8,PE,1644000597
214,kenai,60.5544,-151.2583,23.02,97,100,3.44,US,1644000591
215,mapiripan,2.8892,-72.1256,90.05,44,100,3.24,CO,1644000601
216,jos,9.9167,8.9,64.78,17,0,7.92,NG,1644000604
217,pierre,44.3683,-100.351,21.06,56,100,11.01,US,1644000607
218,batagay,67.6333,134.6333,-38.04,98,36,1.97,RU,1644000609
219,dongsheng,39.8161,109.9776,8.37,70,1,6.46,CN,1644000611
220,waipawa,-41.4122,175.5153,56.03,95,100,12.46,NZ,1644000614
221,barro,-6.7167,-38.8667,92.75,34,45,5.86,BR,1644000616
222,puerto quijarro,-17.7833,-57.7667,91.15,50,82,6.8,BO,1644000619
223,mae hong son,19.3003,97.9685,62.01,58,3,1.72,TH,1644000621
224,chipinge,-20.1883,32.6236,66.16,78,2,2.95,ZW,1644000623
225,tevaitoa,-16.7833,-151.5,79.83,76,71,14.61,PF,1644000628
226,mizdah,31.4451,12.9801,54.7,27,3,5.12,LY,1644000630
227,beaufort,5.3473,115.7455,78.96,94,100,2.39,MY,1644000632
228,roald,62.5833,6.1333,39.9,75,75,29.93,NO,1644000635
229,lebyazhye,55.2689,66.4947,21.13,81,100,12.8,RU,1644000637
230,sao joao da barra,-21.6403,-41.0511,84.29,84,71,18.25,BR,1644000639
231,katsuura,35.1333,140.3,41.18,66,4,21.47,JP,1644000642
232,russell,32.3502,-85.1999,49.15,92,100,6.91,US,1644000644
233,el cano,8.4,-80.5167,90.36,41,10,15.88,PA,1644000649
234,shu,43.5983,73.7614,31.3,64,0,5.37,KZ,1644000651
235,atherton,53.5237,-2.4935,42.42,80,62,4.0,GB,1644000654
236,cartagena,10.3997,-75.5144,89.22,58,20,14.97,CO,1644000495
237,kodiak,57.79,-152.4072,31.51,86,100,0.0,US,1644000660
238,najran,17.4924,44.1277,72.25,50,8,6.26,SA,1644000662
239,kahului,20.8947,-156.47,75.85,70,0,4.61,US,1644000526
240,hithadhoo,-0.6,73.0833,81.99,73,20,10.09,MV,1644000668
241,lompoc,34.6391,-120.4579,69.12,46,20,1.99,US,1644000670
242,seddon,-37.8068,144.8916,59.79,87,75,6.91,AU,1644000672
243,sorong,-0.8833,131.25,80.69,80,99,10.8,ID,1644000675
244,mnogovershinnyy,53.9353,139.9242,-1.95,97,100,5.93,RU,1644000679
245,faanui,-16.4833,-151.75,80.26,75,22,13.96,PF,1644000681
246,srandakan,-7.9386,110.2506,77.05,88,100,5.23,ID,1644000684
247,ponta do sol,32.6667,-17.1,68.0,82,100,1.19,PT,1644000686
248,sawtell,-30.3833,153.1,62.92,82,100,14.97,AU,1644000690
249,rocha,-34.4833,-54.3333,78.53,66,29,12.08,UY,1644000693
250,gabrovo,42.8747,25.3342,31.96,77,73,3.15,BG,1644000695
251,mayo,38.8876,-76.5119,44.17,94,100,5.01,US,1644000698
252,barrhead,55.7992,-4.3929,38.73,84,40,3.0,GB,1644000700
253,japura,-0.3167,102.35,72.21,98,66,0.63,ID,1644000705
254,san patricio,28.017,-97.5169,38.12,49,100,17.72,US,1644000707
255,inuvik,68.3499,-133.7218,-22.79,76,20,3.44,CA,1644000712
256,gao,16.6362,1.637,68.22,11,0,12.41,ML,1644000714
257,hamilton,39.1834,-84.5333,26.08,85,100,1.01,US,1644000702
258,kosaya gora,54.119,37.5446,7.54,99,74,6.04,RU,1644000718
259,shelburne,44.0787,-80.2041,13.23,77,100,6.55,CA,1644000721
260,necochea,-38.5473,-58.7368,70.03,56,100,15.1,AR,1644000723
261,daru,-9.0763,143.2092,77.36,90,100,10.0,PG,1644000725
262,nabire,-3.3667,135.4833,75.97,91,100,1.41,ID,1644000728
263,trelew,-43.249,-65.3051,64.67,68,40,26.46,AR,1644000730
264,kotar,24.7167,80.9833,54.12,52,0,1.43,IN,1644000732
265,nemuro,43.3236,145.575,20.53,80,10,11.16,JP,1644000735
266,kaitangata,-46.2817,169.8464,51.93,69,60,4.74,NZ,1644000737
267,harper,4.375,-7.7169,80.78,78,59,8.1,LR,1644000742
268,saint-francois,46.4154,3.9054,47.64,81,100,4.61,FR,1644000744
269,esperance,-33.8667,121.9,64.24,76,1,15.14,AU,1644000746
270,port keats,-14.25,129.55,79.66,84,98,5.66,AU,1644000462
271,ancud,-41.8697,-73.8203,69.22,69,60,9.86,CL,1644000751
272,sokoni,-6.4333,39.55,82.69,81,100,12.5,TZ,1644000753
273,tromso,69.6496,18.957,21.22,63,75,20.71,NO,1644000755
274,port-gentil,-0.7193,8.7815,80.56,83,20,4.61,GA,1644000758
275,dunedin,-45.8742,170.5036,52.81,86,100,8.01,NZ,1644000760
276,ryotsu,38.0833,138.4333,31.01,86,100,14.58,JP,1644000762
277,sozimskiy,59.7418,52.2482,10.45,96,100,5.41,RU,1644000764
278,bairiki,1.3292,172.9752,80.6,83,20,9.22,KI,1644000767
279,leh,34.1667,77.5833,-1.44,95,100,3.76,IN,1644000769
280,jingdezhen,29.2947,117.2079,35.38,91,4,3.94,CN,1644000771
281,yar-sale,66.8333,70.8333,5.79,97,100,3.94,RU,1644000774
282,turukhansk,65.8167,87.9833,10.76,93,100,14.16,RU,1644000776
283,manado,1.487,124.8455,74.17,100,40,1.14,ID,1644000778
284,pemberton,50.3164,-122.8027,39.06,98,100,6.38,CA,1644000781
285,beloha,-25.1667,45.05,74.53,85,38,18.84,MG,1644000783
286,honiara,-9.4333,159.95,78.15,88,100,3.4,SB,1644000790
287,soyo,-6.1349,12.3689,78.85,73,72,6.26,AO,1644000792
288,saint george,37.1041,-113.5841,48.67,30,0,1.99,US,1644000795
289,yuzhno-kurilsk,44.0306,145.8556,21.69,75,22,8.03,RU,1644000797
290,zhigalovo,54.8097,105.1578,6.55,98,100,3.24,RU,1644000801
291,amapa,1.0,-52.0,77.52,95,100,4.16,BR,1644000804
292,tacna,-18.0056,-70.2483,71.8,56,0,12.66,PE,1644000806
293,sola,-13.8833,167.55,80.2,83,100,27.09,VU,1644000809
294,soc trang,9.6033,105.98,75.16,71,100,16.26,VN,1644000811
295,mulanje,-16.0316,35.5,71.51,87,100,2.04,MW,1644000813
296,mehamn,71.0357,27.8492,17.51,84,100,28.61,NO,1644000816
297,palana,59.1167,159.9667,6.28,85,100,11.43,RU,1644000818
298,rundu,-17.9333,19.7667,70.52,77,98,3.6,NA,1644000820
299,faya,18.3851,42.4509,59.11,85,19,7.56,SA,1644000823
300,bulgan,48.8125,103.5347,-4.34,87,11,4.59,MN,1644000718
301,bac lieu,9.285,105.7244,78.48,74,55,22.86,VN,1644000827
302,villanueva,15.3167,-88.0,88.79,48,20,0.0,HN,1644000830
303,hovd,48.0056,91.6419,-10.43,81,11,3.6,MN,1644000832
304,slave lake,55.2834,-114.769,-0.42,85,100,12.66,CA,1644000834
305,marawi,7.9986,124.2928,64.65,92,100,2.42,PH,1644000837
306,thai binh,20.45,106.3333,59.0,72,100,3.47,VN,1644000839
307,la libertad,-2.2333,-80.9,83.86,65,0,8.05,EC,1644000841
308,mathbaria,22.2876,89.9593,65.3,89,100,5.21,BD,1644000844
309,sao filipe,14.8961,-24.4956,74.03,71,0,8.7,CV,1644000846
310,upington,-28.4478,21.2561,82.78,42,0,2.3,ZA,1644000848
311,hvide sande,56.0045,8.1294,39.0,73,100,21.85,DK,1644000851
312,ejido,8.5514,-71.2375,73.71,79,100,6.31,VE,1644000853
313,souillac,-20.5167,57.5167,80.37,94,75,13.8,MU,1644000855
314,saint anthony,45.0205,-93.218,9.82,67,100,4.0,US,1644000858
315,biloela,-24.4167,150.5,65.7,71,0,16.75,AU,1644000860
316,gamba,-2.65,10.0,76.39,85,16,3.91,GA,1644000863
317,saint-joseph,-21.3667,55.6167,79.16,84,100,23.53,RE,1644000865
318,teya,60.3778,92.6267,17.17,89,100,10.69,RU,1644000868
319,mawlaik,23.6333,94.4167,57.61,71,100,1.19,MM,1644000870
320,talnakh,69.4865,88.3972,1.2,96,100,7.27,RU,1644000873
321,cabo san lucas,22.8909,-109.9124,74.52,46,0,1.99,MX,1644000603
322,la labor,14.4833,-89.0,80.58,36,8,8.72,HN,1644000877
323,corpus christi,27.8006,-97.3964,38.16,64,100,5.99,US,1644000837
324,puerto carreno,6.189,-67.4859,94.98,41,40,14.97,CO,1644000606
325,liverpool,53.4106,-2.9779,42.75,81,75,10.0,GB,1644000883
326,kloulklubed,7.0419,134.2556,81.23,80,25,11.99,PW,1644000798
327,camana,-16.6228,-72.7111,75.38,68,53,9.89,PE,1644000888
328,pimentel,-6.8367,-79.9342,79.09,57,0,16.11,PE,1644000890
329,portland,45.5234,-122.6762,44.04,94,75,3.0,US,1644000703
330,klaksvik,62.2266,-6.589,36.52,60,92,39.91,FO,1644000895
331,denpasar,-8.65,115.2167,80.26,83,40,13.8,ID,1644000897
332,jibuti,11.5,42.5,71.02,50,5,10.09,DJ,1644000900
333,bulungu,-4.55,18.6,72.09,92,100,1.07,CD,1644000902
334,kopavogur,64.1123,-21.913,26.82,80,75,4.61,IS,1644000905
335,yaring,6.8662,101.3689,77.5,84,84,13.02,TH,1644000907
336,santa fe,-31.6333,-60.7,85.01,56,100,4.0,AR,1644000610
337,asau,46.4333,26.4,35.4,83,38,5.91,RO,1644000912
338,sioux lookout,50.1001,-91.917,-3.62,59,0,3.44,CA,1644000793
339,nagornskiy,58.7731,57.5451,17.78,95,100,5.64,RU,1644000916
340,akdepe,42.0551,59.3788,39.29,50,79,16.33,TM,1644000918
341,georgetown,5.4112,100.3354,79.9,95,40,1.99,MY,1644000811
342,whitehorse,60.7161,-135.0538,-4.7,73,100,3.0,CA,1644000720
343,troitsko-pechorsk,62.7084,56.1964,-4.31,100,99,1.88,RU,1644000925
344,rathdrum,47.8137,-116.892,37.27,91,0,0.0,US,1644000748
345,gold coast,-28.0,153.4333,69.04,74,75,7.0,AU,1644000930
346,pilar,-9.5972,-35.9567,84.13,51,43,12.71,BR,1644000932
347,palmer,42.1584,-72.3287,34.41,94,100,11.5,US,1644000934
348,mareeba,-17.0,145.4333,72.32,95,100,2.06,AU,1644000937
349,bay roberts,47.5999,-53.2648,33.33,93,100,10.0,CA,1644000939
350,prieska,-29.6641,22.7474,80.87,25,0,7.87,ZA,1644000941
351,wageningen,51.9667,5.6667,41.9,93,40,10.36,NL,1644000944
352,oriximina,-1.7656,-55.8661,80.64,75,100,2.19,BR,1644000946
353,loiza,18.4313,-65.8802,76.59,73,100,14.97,PR,1644000948
354,kavaratti,10.5669,72.642,78.91,62,100,10.54,IN,1644000951
355,rong kwang,18.339,100.3174,69.4,80,54,1.16,TH,1644000953
356,bosaso,11.2842,49.1816,73.78,65,3,2.28,SO,1644000955
357,polohy,47.4844,36.2536,24.53,94,97,11.25,UA,1644000958
358,macon,39.8667,-88.9668,24.33,80,52,8.12,US,1644000914
359,oum hadjer,13.2954,19.6966,74.5,12,0,15.52,TD,1644000962
360,orlik,52.5178,99.825,-19.97,97,60,2.64,RU,1644000965
361,rio grande,-32.035,-52.0986,82.94,83,84,5.5,BR,1644000967
362,beringovskiy,63.05,179.3167,-9.96,90,94,13.87,RU,1644000830
363,alofi,-19.0595,-169.9187,78.69,78,100,8.05,NU,1644000971
364,puerto leguizamo,-0.1934,-74.7819,81.46,83,100,1.1,CO,1644000974
365,uglich,57.5275,38.3317,2.34,100,99,2.93,RU,1644000976
366,kirovo-chepetsk,58.5539,50.0399,17.06,90,100,8.68,RU,1644000979
367,stranda,62.3096,6.9358,39.34,95,100,9.57,NO,1644000981
368,chapais,49.7834,-74.8492,-6.02,77,89,5.08,CA,1644000983
369,kudahuvadhoo,2.6708,72.8944,81.77,74,65,9.82,MV,1644000986
370,verkhoyansk,67.5447,133.385,-38.87,100,60,0.69,RU,1644000988
371,botwood,49.1499,-55.3482,20.68,94,100,10.47,CA,1644000993
372,santa maria del oro,25.9333,-105.3667,43.54,46,71,6.42,MX,1644000995
373,evensk,61.95,159.2333,14.79,41,0,19.6,RU,1644000997
374,celina,40.5489,-84.5702,18.86,91,100,7.18,US,1644001000
375,atar,20.5169,-13.0499,78.98,9,7,9.48,MR,1644001002
376,lorengau,-2.0226,147.2712,80.01,74,32,5.91,PG,1644001004
377,dingle,10.9995,122.6711,73.72,91,100,11.97,PH,1644000857
378,mandeville,18.0417,-77.5071,75.25,58,65,4.41,JM,1644000856
379,ambilobe,-13.2,49.05,77.02,88,100,11.03,MG,1644000859
380,jati,24.3539,68.2671,65.43,51,0,7.67,PK,1644001013
381,muscatine,41.4667,-91.1335,26.69,31,100,1.01,US,1644000801
382,te anau,-45.4167,167.7167,44.01,93,45,4.27,NZ,1644001017
383,cooma,-36.2333,149.1333,49.77,100,100,8.05,AU,1644001022
384,porto santo,33.072,-16.3415,67.3,88,20,3.44,PT,1644001024
385,chiredzi,-21.05,31.6667,79.47,60,93,5.48,ZW,1644001026
386,bud,39.447,-86.1758,24.48,77,100,6.33,US,1644001029
387,neiafu,-18.65,-173.9833,81.28,89,75,11.5,TO,1644001033
388,kshenskiy,51.8408,37.7136,9.64,97,46,7.78,RU,1644001036
389,saldanha,-33.0117,17.9442,68.05,74,0,20.54,ZA,1644001038
390,nioro,13.35,-15.75,90.45,8,0,7.0,GM,1644000871
391,hami,42.8,93.45,23.85,35,67,2.13,CN,1644001042
392,finschhafen,-6.6024,147.8681,80.83,83,100,10.54,PG,1644001045
393,bayir,37.2687,28.2167,41.52,79,51,5.66,TR,1644001049
394,yanliang,34.6592,109.2292,34.79,48,34,5.35,CN,1644001052
395,bandarbeyla,9.4942,50.8122,75.38,64,0,10.71,SO,1644001054
396,muyezerskiy,63.9333,31.65,12.16,90,100,13.0,RU,1644001056
397,port hardy,50.6996,-127.4199,46.76,100,100,3.44,CA,1644001059
398,bodrum,37.0383,27.4292,49.48,57,0,15.41,TR,1644001061
399,bambous virieux,-20.3428,57.7575,80.22,94,75,13.8,MU,1644000766
400,erdenet,49.0333,104.0833,-6.74,92,9,4.54,MN,1644001066
401,liwale,-9.7667,37.9333,70.48,95,100,6.08,TZ,1644001068
402,priiskovyy,51.9333,116.6333,-21.3,100,79,2.06,RU,1644001070
403,sabha,27.0377,14.4283,54.09,33,0,6.82,LY,1644001073
404,wamba,8.9333,8.6,76.93,16,0,1.3,NG,1644001075
405,ixtapa,20.7,-105.2,84.02,37,6,5.95,MX,1644001077
406,tura,25.5198,90.2201,53.33,96,93,5.37,IN,1644001080
407,joigny,47.9829,3.401,44.62,80,99,11.61,FR,1644001082
408,machiques,10.0644,-72.545,94.6,35,47,11.21,VE,1644001084
409,benguela,-12.5763,13.4055,75.7,72,84,5.93,AO,1644001087
410,biak,-0.9131,122.8766,75.88,85,100,3.58,ID,1644001089
411,lappeenranta,61.0587,28.1887,21.25,87,100,11.5,FI,1644001091
412,bilibino,68.0546,166.4372,-9.9,78,0,4.68,RU,1644001094
413,joshimath,30.5667,79.5667,26.96,67,9,8.88,IN,1644001096
414,taos,36.4072,-105.5731,36.21,70,3,3.94,US,1644001099
415,snezhnogorsk,69.1933,33.2531,4.78,93,100,7.74,RU,1644001101
416,hofn,64.2539,-15.2082,28.42,54,20,24.16,IS,1644001103
417,canico,32.6333,-16.85,68.0,87,20,5.75,PT,1644001106
418,lander,42.833,-108.7307,43.81,44,5,2.93,US,1644001108
419,naro,37.2935,13.7936,47.55,92,7,2.13,IT,1644001110
420,rio gallegos,-51.6226,-69.2181,59.05,33,0,5.75,AR,1644000833
421,nago,26.5881,127.9761,59.45,68,99,14.7,JP,1644000899
422,diego de almagro,-26.3667,-70.05,82.42,14,0,13.89,CL,1644001117
423,karratha,-20.7377,116.8463,83.88,70,98,4.36,AU,1644001119
424,gisors,49.2818,1.7801,42.98,83,7,7.7,FR,1644001121
425,lobito,-12.3481,13.5456,75.65,75,91,5.68,AO,1644001124
426,nuuk,64.1835,-51.7216,5.88,84,100,11.01,GL,1644001126
427,avera,33.194,-82.5271,66.88,92,100,10.6,US,1644001129
428,bambanglipuro,-7.95,110.2833,76.84,88,99,5.12,ID,1644001131
429,sapa,5.1544,120.3241,78.73,83,95,9.04,PH,1644001133
430,khasan,42.4308,130.6434,12.29,57,2,21.7,RU,1644001136
431,isoka,-10.1606,32.6335,60.73,96,100,3.47,ZM,1644001138
432,kaeo,-35.1,173.7833,71.33,96,84,10.83,NZ,1644001141
433,puerto madryn,-42.7692,-65.0385,64.69,62,96,26.73,AR,1644001143
434,kruisfontein,-34.0033,24.7314,64.89,62,100,4.83,ZA,1644001145
435,carahue,-38.7,-73.1667,71.2,51,3,9.64,CL,1644001148
436,mokhsogollokh,61.4681,128.9203,-25.33,100,94,3.38,RU,1644001150
437,colac,-38.3333,143.5833,58.17,83,12,8.77,AU,1644001152
438,rawson,-43.3002,-65.1023,64.69,68,40,26.46,AR,1644001155
439,gilgit,35.9221,74.3087,16.25,47,0,4.34,PK,1644001157
440,isla vista,34.4133,-119.861,70.43,33,0,1.99,US,1644001159
441,kijang,35.2442,129.2139,26.33,54,6,13.11,KR,1644001162
442,taksimo,56.3444,114.8794,-10.73,92,79,3.15,RU,1644001164
443,lebu,-37.6167,-73.65,64.24,75,1,17.47,CL,1644001166
444,vila,42.0304,-8.1588,44.33,83,100,3.42,PT,1644001169
445,aswan,24.0934,32.907,55.06,41,0,9.62,EG,1644001171
446,great bend,38.3645,-98.7648,39.85,53,0,1.99,US,1644001173
447,mogadishu,2.0371,45.3438,77.4,87,6,19.3,SO,1644001176
448,bathsheba,13.2167,-59.5167,83.01,61,75,13.8,BB,1644000908
449,gravdal,68.1214,13.5031,26.49,80,75,11.5,NO,1644001180
450,vestmanna,62.1564,-7.1664,34.72,55,75,25.32,FO,1644001123
451,iquique,-20.2208,-70.1431,73.29,68,3,11.23,CL,1644000965
452,jacareacanga,-6.2222,-57.7528,77.52,93,100,1.57,BR,1644001193
453,charleston,32.7766,-79.9309,76.1,79,20,10.0,US,1644001196
454,santa maria,-29.6842,-53.8069,81.7,83,75,5.75,BR,1644001198
455,samarai,-10.6167,150.6667,80.87,80,88,8.08,PG,1644001200
456,umm kaddadah,13.6017,26.6876,65.25,16,8,16.35,SD,1644001203
457,mitsamiouli,-11.3847,43.2844,81.54,81,86,10.74,KM,1644001208
458,tezu,27.9167,96.1667,60.98,60,100,1.83,IN,1644001212
459,beian,63.6559,9.5683,38.01,69,75,12.66,NO,1644001191
460,george,-33.963,22.4617,63.84,67,96,10.49,ZA,1644001217
461,muzaffarabad,34.37,73.4711,41.38,52,0,5.53,PK,1644001221
462,nhulunbuy,-12.2333,136.7667,81.21,89,100,6.91,AU,1644001227
463,longyearbyen,78.2186,15.6401,15.64,67,0,20.71,SJ,1644001120
464,comodoro rivadavia,-45.8667,-67.5,58.48,60,15,6.98,AR,1644001231
465,acucena,-19.0731,-42.5464,75.83,94,100,2.24,BR,1644001233
466,crixas,-14.5489,-49.9692,86.9,61,95,1.9,BR,1644001236
467,norman wells,65.282,-126.8329,-29.16,68,75,8.05,CA,1644000943
468,ostrovnoy,68.0531,39.5131,5.61,96,100,11.74,RU,1644001240
469,lata,40.1629,-8.3327,54.05,93,100,2.75,PT,1644001243
470,sirjan,29.452,55.6814,54.75,30,0,8.81,IR,1644001245
471,salalah,17.0151,54.0924,71.2,66,3,0.96,OM,1644001213
472,catamarca,-28.4696,-65.7852,73.78,70,97,1.99,AR,1644001250
473,hella,67.2,14.4333,21.88,80,82,34.52,NO,1644001252
474,lavrentiya,65.5833,-171.0,0.84,52,0,17.34,RU,1644001254
475,horgos,46.1556,19.9725,39.15,72,20,5.32,RS,1644001257
476,nouadhibou,20.931,-17.0347,67.89,66,2,11.34,MR,1644001261
477,oranjemund,-28.55,16.4333,64.63,80,13,13.38,NA,1644001264
478,foumban,5.7291,10.9001,73.44,27,96,0.65,CM,1644001266
479,nyurba,63.2842,118.3319,-27.26,99,40,2.8,RU,1644001268
480,oktyabrskiy,54.4815,53.471,28.15,87,100,10.51,RU,1644001271
481,mercedes,-34.6515,-59.4307,83.79,51,100,5.39,AR,1644001273
482,kudat,6.8837,116.8477,76.32,85,97,6.85,MY,1644001275
483,san ramon,37.7799,-121.978,59.52,57,0,1.01,US,1644001278
484,sorland,67.667,12.6934,31.86,78,94,24.58,NO,1644001280
485,talara,-4.5772,-81.2719,75.97,70,90,19.35,PE,1644001282
486,kupang,-10.1667,123.5833,78.8,87,100,10.85,ID,1644001285
487,mankono,8.0586,-6.1897,83.55,17,7,2.19,CI,1644001287
488,ucluelet,48.9329,-125.5528,47.08,94,100,15.84,CA,1644001289
489,supaul,26.1167,86.6,55.56,90,100,10.16,IN,1644001292
490,kachug,53.9606,105.8817,-0.45,99,100,1.45,RU,1644001294
491,pangoa,-12.1167,-73.0,79.52,74,96,3.62,PE,1644001296
492,tiarei,-17.5333,-149.3333,84.22,76,4,16.58,PF,1644001301
493,mapiri,-15.25,-68.1667,76.44,94,100,2.39,BO,1644001303
494,tame,6.461,-71.73,91.11,37,99,8.48,CO,1644001305
495,tahta,26.7693,31.5021,54.79,47,5,11.63,EG,1644001308
496,sovetskiy,61.3614,63.5842,4.17,97,100,2.57,RU,1644001310
497,marovoay,-16.1,46.6333,75.63,95,100,3.58,MG,1644001312
498,camacha,33.0833,-16.3333,64.53,88,20,3.44,PT,1644001315
499,pantai remis,4.4557,100.6288,76.73,85,100,3.2,MY,1644001317
500,cayenne,4.9333,-52.3333,84.24,82,20,7.0,GF,1644001319
501,ilhabela,-23.7781,-45.3581,79.12,89,100,5.53,BR,1644001322
502,pueblo,38.2545,-104.6091,40.95,52,0,1.01,US,1644001175
503,moose factory,51.2585,-80.6094,2.26,78,100,6.31,CA,1644001328
504,pombas,17.1503,-25.0201,71.38,81,9,13.0,CV,1644001333
505,pringsewu,-5.3582,104.9744,72.82,99,97,3.74,ID,1644001335
506,newburn,54.9876,-1.7442,38.71,83,0,18.41,GB,1644001337
507,ust-omchug,61.15,149.6333,-14.37,83,100,5.95,RU,1644001340
508,muros,42.7762,-9.0603,55.24,77,87,7.4,ES,1644001342
509,qasigiannguit,68.8193,-51.1922,16.05,94,100,24.07,GL,1644001344
510,ulladulla,-35.35,150.4667,65.88,74,100,10.51,AU,1644001347
511,plavsk,53.7094,37.2919,5.9,100,91,5.39,RU,1644001349
512,xai-xai,-25.0519,33.6442,79.95,61,98,13.78,MZ,1644001351
513,camapua,-19.5314,-54.0439,84.16,65,100,8.5,BR,1644001354
514,akhisar,38.9185,27.8401,40.55,77,7,5.39,TR,1644001356
515,magadan,59.5667,150.8,-0.02,69,99,11.16,RU,1644001358
516,clyde river,70.4692,-68.5914,-3.77,77,100,16.11,CA,1644001361
517,adrar,20.5022,-10.0711,71.98,9,11,8.5,MR,1644001363
518,killybegs,54.6333,-8.45,42.51,62,83,22.95,IE,1644001365
519,farsund,58.0948,6.8047,38.95,100,81,24.52,NO,1644001368
520,khani,41.9563,42.9566,29.77,99,100,5.75,GE,1644001370
521,paamiut,61.994,-49.6678,9.0,69,100,17.22,GL,1644001372
522,bowen,-20.0167,148.2333,76.68,82,100,16.04,AU,1644001377
523,ataco,3.5915,-75.3818,87.33,55,71,5.61,CO,1644001379
524,chesma,53.8111,60.6533,18.46,93,100,8.57,RU,1644001382
525,senanga,-16.1167,23.2667,68.86,84,100,4.79,ZM,1644001384
526,nishihara,26.1842,127.7558,58.68,67,100,18.41,JP,1644001263
527,yongan,39.6957,113.6871,8.58,75,2,4.9,CN,1644001388
528,thale,51.75,11.05,45.05,88,89,19.46,DE,1644001391
529,mahanoro,-19.9,48.8,76.17,92,100,20.78,MG,1644001393
530,trenggalek,-8.05,111.7167,75.74,87,100,3.06,ID,1644001396
531,luganville,-15.5333,167.1667,77.25,94,100,4.85,VU,1644001276
532,gornopravdinsk,60.05,69.9,21.78,98,100,3.02,RU,1644001400
533,am timan,11.0297,20.2827,80.82,14,10,8.12,TD,1644001403
534,naryan-mar,67.6713,53.087,-7.73,100,94,6.22,RU,1644001405
535,orbetello,42.4408,11.2196,53.8,92,100,7.18,IT,1644001411
536,zhezkazgan,47.8043,67.7144,8.31,79,46,11.43,KZ,1644001414
537,riyadh,24.6877,46.7219,73.18,21,0,5.53,SA,1644001268
538,buchanan,5.8808,-10.0467,85.96,75,56,9.08,LR,1644001418
539,sokolo,14.7328,-6.1219,80.89,10,2,8.75,ML,1644001423
540,abu samrah,35.3029,37.1841,45.66,88,100,11.14,SY,1644001425
541,kizukuri,40.8061,140.3861,27.1,38,76,13.11,JP,1644001427
542,sibolga,1.7427,98.7792,74.71,89,100,3.8,ID,1644001430
543,leshukonskoye,64.8989,45.7622,-11.16,100,100,2.86,RU,1644001432
544,el alto,-4.2714,-81.2147,78.46,64,61,17.31,PE,1644001434
545,bafut,6.0833,10.1,71.37,28,18,2.08,CM,1644001437
546,caraguatatuba,-23.6338,-45.4899,89.42,93,100,0.85,BR,1644001439
547,zambezi,-13.5432,23.1047,64.9,96,84,5.12,ZM,1644001441
548,zhangjiakou,40.81,114.8794,7.66,68,4,7.56,CN,1644001359
549,pahrump,36.2083,-115.9839,51.06,27,0,1.99,US,1644001446
550,harnosand,62.6323,17.9379,33.82,90,100,12.3,SE,1644001448
551,sangmelima,2.9333,11.9833,73.58,35,11,0.34,CM,1644001450
552,salme,28.0369,85.0942,37.69,88,100,3.09,NP,1644001453
553,kamyshlov,56.8428,62.7111,23.61,90,100,8.97,RU,1644001455
554,mikkeli,61.6886,27.2723,21.31,79,75,16.11,FI,1644001457
555,langham,52.3668,-106.9679,-5.98,93,100,13.29,CA,1644001460
556,gourcy,13.2167,-2.35,76.26,10,35,9.95,BF,1644001464
557,tavda,58.0425,65.2726,24.78,96,100,4.94,RU,1644001466
558,jurm,36.8648,70.8342,21.99,44,100,7.87,AF,1644001469
